City_ID,City,Lat,Lng,Max Temp,Humidity,Cloudiness,Wind Speed,Country,Date
0,winnemucca,40.973,-117.7357,-6.97,86,0,2.57,US,2025-01-08
1,port-aux-francais,-49.35,70.2167,5.85,73,28,9.21,TF,2025-01-08
2,puerto natales,-51.7236,-72.4875,11.25,82,75,7.2,CL,2025-01-08
3,fort bragg,35.139,-79.006,-1.72,65,0,3.09,US,2025-01-08
4,punta arenas,-53.15,-70.9167,12.06,76,75,4.63,CL,2025-01-08
5,constantia,44.1833,28.65,13.38,75,35,3.25,RO,2025-01-08
6,puerto ayora,-0.7393,-90.3518,24.19,97,100,4.02,EC,2025-01-08
7,edinburgh of the seven seas,-37.0676,-12.3116,17.72,98,90,5.34,SH,2025-01-08
8,chibougamau,49.9168,-74.3659,-13.21,78,100,5.66,CA,2025-01-08
9,margaret river,-33.95,115.0667,13.94,78,100,3.99,AU,2025-01-08
10,tiksi,71.6872,128.8694,-22.64,91,49,7.13,RU,2025-01-08
11,new holland,40.1018,-76.0852,-2.48,63,100,7.72,US,2025-01-08
12,hermanus,-34.4187,19.2345,23.22,67,2,5.49,ZA,2025-01-08
13,adamstown,-25.066,-130.1015,24.7,77,100,8.61,PN,2025-01-08
14,mwinilunga,-11.7358,24.4293,25.03,61,100,2.86,ZM,2025-01-08
15,afaahiti,-17.75,-149.2833,25.84,74,100,2.32,PF,2025-01-08
16,papatowai,-46.5619,169.4708,11.45,94,97,2.23,NZ,2025-01-08
17,nortelandia,-14.4547,-56.8028,27.87,81,87,2.57,BR,2025-01-08
18,west island,-12.1568,96.8225,27.99,78,75,6.17,CC,2025-01-08
19,quellon,-43.1167,-73.6167,14.07,98,100,3.81,CL,2025-01-08
20,fort mcmurray,56.7268,-111.381,2.77,75,100,6.69,CA,2025-01-08
21,howrah,22.5892,88.3103,18.0,72,19,2.57,IN,2025-01-08
22,georgetown,5.4112,100.3354,28.96,69,20,2.24,MY,2025-01-08
23,mount gambier,-37.8333,140.7667,17.26,77,100,1.5,AU,2025-01-08
24,posto fiscal rolim de moura,-13.0833,-62.2667,27.27,86,100,1.94,BR,2025-01-08
25,nova sintra,14.8667,-24.7167,23.52,72,0,10.66,CV,2025-01-08
26,newnham,-41.3833,147.1333,15.53,77,100,3.6,AU,2025-01-08
27,yellowknife,62.456,-114.3525,-13.1,96,100,9.26,CA,2025-01-08
28,walvis bay,-22.9575,14.5053,24.53,50,10,5.14,NA,2025-01-08
29,grytviken,-54.2811,-36.5092,6.92,55,30,0.72,GS,2025-01-08
30,olonkinbyen,70.9221,-8.7187,-5.7,82,97,7.08,SJ,2025-01-08
31,albany,42.6001,-73.9662,-6.87,65,60,2.24,US,2025-01-08
32,waitangi,-43.9535,-176.5597,13.23,97,100,3.58,NZ,2025-01-08
33,luganville,-15.5333,167.1667,25.79,87,93,1.97,VU,2025-01-08
34,isafjordur,66.0755,-23.124,-4.98,58,20,3.6,IS,2025-01-08
35,remire-montjoly,4.9167,-52.2667,29.02,65,75,7.72,GF,2025-01-08
36,ust-nera,64.5667,143.2,-33.68,97,100,2.11,RU,2025-01-08
37,anadyr,64.75,177.4833,-21.72,71,0,8.0,RU,2025-01-08
38,kingston,17.997,-76.7936,28.53,70,20,3.09,JM,2025-01-08
39,ushuaia,-54.8,-68.3,12.81,71,20,2.06,AR,2025-01-08
40,new norfolk,-42.7826,147.0587,13.29,71,100,1.29,AU,2025-01-08
41,bethel,41.3712,-73.414,-3.8,51,0,5.14,US,2025-01-08
42,ilulissat,69.2167,-51.1,-9.68,76,100,2.08,GL,2025-01-08
43,kodiak,57.79,-152.4072,0.73,93,0,0.0,US,2025-01-08
44,hawaiian paradise park,19.5933,-154.9731,19.94,100,0,0.0,US,2025-01-08
45,profondeville,50.3761,4.8669,3.29,93,100,4.47,BE,2025-01-08
46,cidade velha,14.9167,-23.6167,27.26,54,20,7.2,CV,2025-01-08
47,santiago de cao,-7.9589,-79.2392,21.07,83,20,3.6,PE,2025-01-08
48,colac,-38.3333,143.5833,16.79,66,100,3.12,AU,2025-01-08
49,ust'-kulom,61.6864,53.6902,-12.31,95,100,4.44,RU,2025-01-08
50,al jawf,29.5,38.75,11.1,43,0,3.11,SA,2025-01-08
51,coahuayana de hidalgo,18.7,-103.6583,25.12,46,98,0.49,MX,2025-01-08
52,igarka,67.4667,86.5833,-28.11,100,100,1.74,RU,2025-01-08
53,thompson,55.7435,-97.8558,-12.91,85,100,4.63,CA,2025-01-08
54,swakopmund,-22.6833,14.5333,19.99,75,39,2.68,NA,2025-01-08
55,wailua homesteads,22.0669,-159.378,21.44,95,100,1.54,US,2025-01-08
56,candido mendes,-1.4467,-45.7167,28.13,77,100,2.09,BR,2025-01-08
57,tazovsky,67.4667,78.7,-28.8,100,36,1.49,RU,2025-01-08
58,ambon,-3.6954,128.1814,30.69,100,99,1.43,ID,2025-01-08
59,yeniseysk,58.4497,92.1703,-10.91,96,100,2.06,RU,2025-01-08
60,mascara,35.3966,0.1403,19.51,26,100,2.31,DZ,2025-01-08
61,dawson creek,55.7666,-120.2362,3.8,65,0,6.69,CA,2025-01-08
62,malpica,43.3228,-8.8105,15.13,100,69,11.93,ES,2025-01-08
63,linqiong,30.4159,103.4609,7.39,69,95,0.38,CN,2025-01-08
64,nuku'alofa,-21.1333,-175.2,24.19,78,20,3.09,TO,2025-01-08
65,mbandaka,0.0487,18.2603,31.98,41,79,1.99,CD,2025-01-08
66,alice springs,-23.7,133.8833,28.75,30,62,0.51,AU,2025-01-08
67,zeya,53.75,127.2667,-18.92,88,100,2.21,RU,2025-01-08
68,singarayakonda,15.25,80.0333,23.24,74,0,3.66,IN,2025-01-08
69,invercargill,-46.4,168.35,11.68,93,59,0.74,NZ,2025-01-08
70,blackmans bay,-43.0167,147.3167,17.07,88,97,0.45,AU,2025-01-08
71,lycksele,64.5954,18.6735,-11.07,85,100,3.09,SE,2025-01-08
72,salinopolis,-0.6136,-47.3561,26.82,85,77,3.57,BR,2025-01-08
73,kenai,60.5544,-151.2583,0.64,96,75,2.06,US,2025-01-08
74,isangel,-19.55,169.2667,23.68,71,31,3.48,VU,2025-01-08
75,shenjiamen,29.9576,122.298,7.82,50,20,5.15,CN,2025-01-08
76,kikwit,-5.041,18.8162,32.58,40,90,1.52,CD,2025-01-08
77,iqaluit,63.7506,-68.5145,-20.73,76,100,13.38,CA,2025-01-08
78,mundemba,4.9479,8.8724,35.7,29,68,3.68,CM,2025-01-08
79,susuman,62.7833,148.1667,-36.45,96,98,0.28,RU,2025-01-08
80,pacific grove,36.6177,-121.9166,8.61,57,0,2.06,US,2025-01-08
81,jamestown,42.097,-79.2353,-8.32,85,100,5.66,US,2025-01-08
82,port alfred,-33.5906,26.891,24.54,71,2,3.13,ZA,2025-01-08
83,guerrero negro,27.9769,-114.0611,13.28,78,3,3.33,MX,2025-01-08
84,uturoa,-16.7333,-151.4333,27.15,70,66,2.38,PF,2025-01-08
85,al bayda',32.7627,21.7551,13.5,59,78,0.66,LY,2025-01-08
86,paradip garh,20.3167,86.6167,20.38,69,0,3.75,IN,2025-01-08
87,ingeniero jacobacci,-41.3427,-69.5448,25.79,17,0,6.54,AR,2025-01-08
88,bikenibeu village,1.3673,173.1241,26.98,83,40,3.6,KI,2025-01-08
89,kokuy,52.2037,117.5529,-29.97,100,38,0.96,RU,2025-01-08
90,weno,7.4515,151.8468,27.97,74,100,4.12,FM,2025-01-08
91,usogorsk,63.4106,48.6872,-10.77,94,100,6.01,RU,2025-01-08
92,tonghae,37.5439,129.1069,-6.62,51,0,8.36,KR,2025-01-08
93,tariba,7.8188,-72.2243,21.95,46,85,2.09,VE,2025-01-08
94,krasnyy chikoy,50.3643,108.7512,-28.16,100,60,0.7,RU,2025-01-08
95,chonchi,-42.6128,-73.8092,15.57,94,100,2.37,CL,2025-01-08
96,san patricio,28.017,-97.5169,5.63,48,100,6.54,US,2025-01-08
97,chinde,26.8212,87.7095,12.66,71,0,1.97,NP,2025-01-08
98,boende,-0.2167,20.8667,27.76,59,100,0.98,CD,2025-01-08
99,axum,14.1245,38.7244,19.08,27,68,5.13,ET,2025-01-08
100,waingapu,-9.6567,120.2641,27.35,79,100,0.68,ID,2025-01-08
101,island harbour,50.724,-1.2758,3.04,93,100,3.13,GB,2025-01-08
102,tandalti,13.0167,31.8667,29.85,14,14,3.72,SD,2025-01-08
103,huarmey,-10.0681,-78.1522,22.81,79,92,3.55,PE,2025-01-08
104,tlacotepec,20.0667,-97.8667,13.35,99,98,0.61,MX,2025-01-08
105,emerald,-23.5333,148.1667,23.52,63,19,5.87,AU,2025-01-08
106,florida,28.7505,-82.5001,8.33,71,47,4.06,US,2025-01-08
107,lithgow,-33.4833,150.15,10.92,98,100,1.32,AU,2025-01-08
108,badger,64.8,-147.5333,-9.8,87,40,2.06,US,2025-01-08
109,atafu village,-8.5421,-172.5159,28.05,68,100,7.84,TK,2025-01-08
110,adrar,20.5022,-10.0711,25.84,10,10,7.07,MR,2025-01-08
111,kalymnos,36.95,26.9833,17.74,82,40,4.12,GR,2025-01-08
112,longyearbyen,78.2186,15.6401,-8.09,79,75,5.14,SJ,2025-01-08
113,arkhangel'sk,64.5401,40.5433,-8.94,86,100,8.0,RU,2025-01-08
114,udachny,66.4167,112.4,-23.05,99,99,2.44,RU,2025-01-08
115,ribeira grande,38.5167,-28.7,19.32,82,20,10.73,PT,2025-01-08
116,plettenberg bay,-34.0527,23.3716,21.94,64,17,3.36,ZA,2025-01-08
117,bayana,26.9,77.2833,12.84,49,0,1.02,IN,2025-01-08
118,avarua,-21.2078,-159.775,28.03,89,75,6.69,CK,2025-01-08
119,vorgashor,67.5833,63.95,-26.76,100,100,2.11,RU,2025-01-08
120,cabedelo,-6.9811,-34.8339,32.37,62,57,4.75,BR,2025-01-08
121,sitka,57.0531,-135.33,5.05,95,100,2.41,US,2025-01-08
122,staraya stanitsa,48.35,40.2833,5.78,67,100,5.19,RU,2025-01-08
123,kissidougou,9.1848,-10.0999,35.68,11,20,3.77,GN,2025-01-08
124,nevada,39.2502,-116.7512,-8.71,87,100,0.76,US,2025-01-08
125,port shepstone,-30.7414,30.455,24.17,66,52,6.38,ZA,2025-01-08
126,vilhena,-12.7406,-60.1458,25.12,88,75,5.14,BR,2025-01-08
127,puerto cabezas,14.0351,-83.3888,24.98,94,75,4.12,NI,2025-01-08
128,college,64.8569,-147.8028,-9.75,87,40,2.06,US,2025-01-08
129,yarkovo,57.4028,67.0786,-17.07,95,85,2.31,RU,2025-01-08
130,lake city,30.1897,-82.6393,5.39,69,0,2.3,US,2025-01-08
131,lihue,21.9789,-159.3672,21.77,100,100,1.54,US,2025-01-08
132,suva,-18.1416,178.4415,25.71,83,75,4.63,FJ,2025-01-08
133,korla,41.7597,86.1469,-6.21,74,100,1.54,CN,2025-01-08
134,tsumeb,-19.2333,17.7167,30.92,29,100,2.29,NA,2025-01-08
135,san antonio de pale,-1.4014,5.6325,27.47,75,69,3.19,GQ,2025-01-08
136,dryden,49.7833,-92.7503,-15.84,85,100,4.63,CA,2025-01-08
137,ambodifotatra,-16.9833,49.85,27.92,73,1,2.8,MG,2025-01-08
138,altai,46.3722,96.2583,-16.16,64,98,1.88,MN,2025-01-08
139,ajaccio,42.0,8.9167,12.99,72,100,1.03,FR,2025-01-08
140,aykhal,66.0,111.5,-20.39,99,100,2.98,RU,2025-01-08
141,crane,31.3974,-102.3501,-2.02,28,99,5.93,US,2025-01-08
142,east london,-33.0153,27.9116,24.52,69,20,8.23,ZA,2025-01-08
143,road town,18.4167,-64.6167,28.02,69,40,3.6,VG,2025-01-08
144,carutapera,-1.195,-46.02,28.34,74,99,2.74,BR,2025-01-08
145,bubaque,11.2833,-15.8333,25.48,62,55,4.41,GW,2025-01-08
146,port mathurin,-19.6833,63.4167,26.38,87,3,9.22,MU,2025-01-08
147,sibenik,43.7272,15.9058,15.21,66,32,0.89,HR,2025-01-08
148,saipan,15.1355,145.701,26.47,86,21,3.58,MP,2025-01-08
149,bredasdorp,-34.5322,20.0403,24.26,50,2,8.15,ZA,2025-01-08
150,lebu,-37.6167,-73.65,17.98,70,0,5.08,CL,2025-01-08
151,batken,39.8333,71.0,-10.44,63,98,2.48,KG,2025-01-08
152,phelan,34.4261,-117.5723,2.37,41,1,1.79,US,2025-01-08
153,las heras,-46.5419,-68.9359,23.41,32,21,14.61,AR,2025-01-08
154,lompoc,34.6391,-120.4579,10.01,34,68,1.91,US,2025-01-08
155,petropavlovsk-kamchatsky,53.0452,158.6483,-5.67,58,0,3.0,RU,2025-01-08
156,nienburg,52.6333,9.2167,4.16,82,94,5.3,DE,2025-01-08
157,turuntayevo,52.2,107.6167,-22.64,99,35,0.52,RU,2025-01-08
158,hithadhoo,-0.6,73.0833,27.44,76,40,1.88,MV,2025-01-08
159,dunedin,-45.8742,170.5036,12.52,87,99,4.16,NZ,2025-01-08
160,tsiombe,-25.3,45.4833,30.08,58,78,4.19,MG,2025-01-08
161,las khorey,11.1595,48.1967,24.03,68,43,2.67,SO,2025-01-08
162,harstad,68.799,16.5293,-4.91,75,100,3.8,NO,2025-01-08
163,nagqu,31.5,92.0,-12.58,26,53,2.19,CN,2025-01-08
164,sao jose da coroa grande,-8.8978,-35.1478,29.12,57,8,5.71,BR,2025-01-08
165,hampton,37.0299,-76.3452,0.01,53,20,7.72,US,2025-01-08
166,crucecita,-28.95,-58.9833,33.84,20,0,3.12,AR,2025-01-08
167,lerwick,60.1545,-1.1494,3.83,69,100,7.18,GB,2025-01-08
168,callao,-12.0667,-77.15,24.84,78,100,6.17,PE,2025-01-08
169,talnakh,69.4865,88.3972,-18.61,98,100,2.55,RU,2025-01-08
170,christchurch,-43.5333,172.6333,9.95,91,100,0.0,NZ,2025-01-08
171,keflavik,64.0049,-22.5624,-4.76,58,0,3.6,IS,2025-01-08
172,aur,8.1499,171.1687,26.93,80,84,9.88,MH,2025-01-08
173,jaisalmer,26.9147,70.9181,19.36,12,17,2.14,IN,2025-01-08
174,bamboo flat,11.7,92.7167,25.05,88,100,1.03,IN,2025-01-08
175,shimonoseki,33.95,130.95,5.0,81,75,5.66,JP,2025-01-08
176,dolores,-36.3132,-57.6792,31.02,25,0,4.72,AR,2025-01-08
177,kogalym,62.2654,74.4791,-21.34,100,94,2.76,RU,2025-01-08
178,dudinka,69.4058,86.1778,-21.99,97,100,5.01,RU,2025-01-08
179,kolonia town,6.964,158.206,27.88,79,81,8.42,FM,2025-01-08
180,thunder bay,48.4001,-89.3168,-16.01,66,40,1.03,CA,2025-01-08
181,opuwo,-18.0607,13.84,28.63,35,85,5.77,NA,2025-01-08
182,rio grande,-32.035,-52.0986,23.05,58,0,4.97,BR,2025-01-08
183,bardai,11.65,7.2333,30.16,12,37,5.95,NG,2025-01-08
184,bilibino,68.0546,166.4372,-35.61,98,9,0.8,RU,2025-01-08
185,la sarre,48.8002,-79.1996,-21.62,93,100,5.39,CA,2025-01-08
186,mejit,10.2753,170.8646,27.12,74,19,10.77,MH,2025-01-08
187,la ronge,55.1001,-105.2842,-1.86,74,20,3.09,CA,2025-01-08
188,popondetta,-8.7537,148.2534,24.23,99,100,0.74,PG,2025-01-08
189,griffith,41.5284,-87.4237,-6.93,71,0,3.6,US,2025-01-08
190,akureyri,65.6835,-18.0878,-9.04,86,100,2.57,IS,2025-01-08
191,sao joao da barra,-21.6403,-41.0511,30.05,78,22,4.67,BR,2025-01-08
192,khandyga,62.6667,135.6,-36.55,100,96,0.78,RU,2025-01-08
193,carnarvon,-24.8667,113.6333,24.77,71,0,11.34,AU,2025-01-08
194,manturovo,58.3353,44.7619,1.68,100,100,5.14,RU,2025-01-08
195,lewistown,40.5992,-77.5714,-2.99,100,95,5.21,US,2025-01-08
196,stanley,54.868,-1.6985,0.01,74,0,3.6,GB,2025-01-08
197,kodinsk,58.6881,99.1844,-15.56,96,100,1.62,RU,2025-01-08
198,codrington,-38.2667,141.9667,17.16,84,100,1.3,AU,2025-01-08
199,kilkeel,54.062,-6.0031,1.64,78,100,2.5,GB,2025-01-08
200,qaqortoq,60.7167,-46.0333,-6.3,73,99,2.82,GL,2025-01-08
201,qamdo,31.1667,97.2333,-8.87,35,9,1.65,CN,2025-01-08
202,iskateley,67.6803,53.1512,-24.37,100,48,2.96,RU,2025-01-08
203,urzhar,47.093,81.6294,-4.22,98,100,2.17,KZ,2025-01-08
204,nemuro,43.3236,145.575,-2.69,66,11,12.99,JP,2025-01-08
205,yelizovo,53.1873,158.3805,-4.92,58,0,3.0,RU,2025-01-08
206,karliova,39.2983,41.0142,-10.54,74,18,1.71,TR,2025-01-08
207,pudasjarvi,65.3833,26.9167,-9.0,88,100,4.27,FI,2025-01-08
208,key west,24.5557,-81.7826,15.56,68,71,3.58,US,2025-01-08
209,labytnangi,66.6572,66.4183,-27.35,96,5,0.76,RU,2025-01-08
210,tokmok,42.8417,75.3016,-7.06,81,100,2.65,KG,2025-01-08
211,san luis de la loma,17.2706,-100.8939,26.57,53,0,1.39,MX,2025-01-08
212,touros,-5.1989,-35.4608,30.49,56,100,5.27,BR,2025-01-08
213,lamar,33.6668,-95.5836,-2.84,67,0,3.6,US,2025-01-08
214,nar'yan-mar,67.6713,53.087,-24.43,100,56,2.93,RU,2025-01-08
215,tolanaro,-25.0319,46.9987,30.04,70,40,9.77,MG,2025-01-08
216,tutoia,-2.7619,-42.2744,29.87,65,93,5.42,BR,2025-01-08
217,port-vila,-17.7338,168.3219,24.78,88,75,1.54,VU,2025-01-08
218,salalah,17.0151,54.0924,22.29,68,3,2.57,OM,2025-01-08
219,kapuskasing,49.4169,-82.4331,-28.95,76,20,3.09,CA,2025-01-08
220,nabire,-3.3667,135.4833,25.16,93,100,1.23,ID,2025-01-08
221,yamada,39.4667,141.95,-0.85,70,5,3.75,JP,2025-01-08
222,berezovo,63.9381,65.0419,-28.83,100,30,0.85,RU,2025-01-08
223,gizo,-8.103,156.8419,28.29,79,43,5.11,SB,2025-01-08
224,san andres,12.5847,-81.7006,27.01,94,40,6.17,CO,2025-01-08
225,st. john's,47.5649,-52.7093,1.65,96,100,2.06,CA,2025-01-08
226,klyuchi,52.2667,79.1667,-14.39,90,99,4.95,RU,2025-01-08
227,wahpeton,46.2652,-96.6059,-14.95,85,80,3.22,US,2025-01-08
228,queenstown,-31.8976,26.8753,25.36,40,42,7.62,ZA,2025-01-08
229,gallup,35.5281,-108.7426,-6.09,73,100,4.63,US,2025-01-08
230,hami,42.8,93.45,-5.06,58,3,2.51,CN,2025-01-08
231,zhanibek,49.4167,46.85,1.52,90,84,7.18,KZ,2025-01-08
232,tazacorte,28.629,-17.9293,20.54,83,40,3.09,ES,2025-01-08
233,nago,26.5881,127.9761,14.04,60,5,2.4,JP,2025-01-08
234,utrik,11.2278,169.8474,26.98,82,7,10.18,MH,2025-01-08
235,mount isa,-20.7333,139.5,30.87,45,65,5.14,AU,2025-01-08
236,nikolayevsk-on-amure,53.1406,140.73,-8.26,94,100,3.66,RU,2025-01-08
237,shingu,33.7333,135.9833,1.74,75,84,2.96,JP,2025-01-08
238,faya-largeau,17.9257,19.1043,26.94,16,0,3.09,TD,2025-01-08
239,neiafu,-18.65,-173.9833,25.38,94,75,0.0,TO,2025-01-08
240,vicosa,-20.7539,-42.8819,23.38,85,90,4.25,BR,2025-01-08
241,namibe,-15.1961,12.1522,23.75,73,84,4.32,AO,2025-01-08
242,rawson,-43.3002,-65.1023,25.16,53,0,2.06,AR,2025-01-08
243,el bauga,18.262,33.9081,25.79,18,64,3.77,SD,2025-01-08
244,korenevo,55.6719,38.0078,4.21,100,75,4.0,RU,2025-01-08
245,ciudad del carmen,18.6333,-91.8333,22.9,76,60,6.32,MX,2025-01-08
246,nanao,37.05,136.9667,4.23,64,100,7.92,JP,2025-01-08
247,kupang,-10.1667,123.5833,26.71,86,100,1.87,ID,2025-01-08
248,ash shafa,21.0694,40.3119,12.68,39,41,1.6,SA,2025-01-08
249,flying fish cove,-10.4217,105.6791,25.82,88,40,2.06,CX,2025-01-08
250,whitehorse,60.7161,-135.0538,-3.57,74,75,4.63,CA,2025-01-08
251,geraldton,-28.7667,114.6,21.23,78,20,7.2,AU,2025-01-08
252,selfoss,63.9331,-20.9971,-11.27,75,0,4.74,IS,2025-01-08
253,manismata,-2.4667,111.0333,24.02,98,98,1.15,ID,2025-01-08
254,kuqa,41.7278,82.9364,-6.12,85,100,0.74,CN,2025-01-08
255,champerico,14.3,-91.9167,26.94,68,26,1.66,GT,2025-01-08
256,nan,18.8333,100.6667,18.8,60,6,0.08,TH,2025-01-08
257,whangarei,-35.7317,174.3239,13.89,82,87,1.92,NZ,2025-01-08
258,el granada,37.5027,-122.4694,13.21,46,0,2.06,US,2025-01-08
259,kaohsiung,22.6163,120.3133,18.97,84,75,1.03,TW,2025-01-08
260,nishinoomote,30.7333,131.0,14.43,51,74,12.3,JP,2025-01-08
261,caibarien,22.5206,-79.4669,22.16,64,73,5.63,CU,2025-01-08
262,nuuk,64.1835,-51.7216,-3.66,68,40,4.12,GL,2025-01-08
263,aasiaat,68.7098,-52.8699,-6.89,94,100,4.65,GL,2025-01-08
264,hangal,14.7667,75.1333,21.66,37,26,3.5,IN,2025-01-08
265,katabu,-4.9333,122.5167,24.75,90,56,0.79,ID,2025-01-08
266,abepura,-2.6333,140.5833,22.65,95,16,0.14,ID,2025-01-08
267,valparaiso,-33.0393,-71.6273,23.04,53,75,5.14,CL,2025-01-08
268,pitimbu,-7.4706,-34.8086,28.13,65,74,4.62,BR,2025-01-08
269,polyarnyy,69.1989,33.4478,-14.84,93,73,2.9,RU,2025-01-08
270,loa janan,-0.583,117.095,23.68,97,100,0.67,ID,2025-01-08
271,oskarshamn,57.2645,16.4484,3.88,88,100,7.4,SE,2025-01-08
272,xucheng,20.35,110.1288,18.76,81,100,3.16,CN,2025-01-08
273,mandera,3.9366,41.867,33.83,25,9,1.26,KE,2025-01-08
274,vilyuchinsk,52.9306,158.4028,-4.85,83,100,4.01,RU,2025-01-08
275,barkly west,-28.5354,24.5215,34.13,15,6,4.62,ZA,2025-01-08
276,tahlequah,35.9154,-94.97,-5.88,79,0,1.54,US,2025-01-08
277,hamilton,39.1834,-84.5333,-5.08,79,100,3.6,US,2025-01-08
278,balykshi,47.0667,51.8667,-3.0,80,0,9.0,KZ,2025-01-08
279,oamaru,-45.0784,170.9801,13.54,86,89,1.68,NZ,2025-01-08
280,vorkuta,67.5,64.0,-26.77,100,100,1.83,RU,2025-01-08
281,fauske,67.2588,15.3918,-12.01,79,100,4.67,NO,2025-01-08
282,xinmin,41.9908,122.8253,-14.39,59,22,3.61,CN,2025-01-08
283,boa esperanca,-21.09,-45.5658,27.35,64,49,0.81,BR,2025-01-08
284,muravlenko,63.7898,74.523,-23.52,100,74,1.29,RU,2025-01-08
285,greymouth,-42.4667,171.2,10.58,84,0,3.52,NZ,2025-01-08
286,achacachi,-16.05,-68.6833,7.13,88,100,2.47,BO,2025-01-08
287,marsabit,2.3284,37.9899,26.24,32,40,4.88,KE,2025-01-08
288,nova vicosa,-17.8919,-39.3719,29.06,62,73,3.05,BR,2025-01-08
289,kapa'a,22.0752,-159.319,22.18,95,100,2.57,US,2025-01-08
290,santa maria del oro,25.9333,-105.3667,9.16,58,90,1.89,MX,2025-01-08
291,kolokani,13.5728,-8.0339,33.4,12,100,5.54,ML,2025-01-08
292,larreynaga,12.6769,-86.5719,28.46,58,50,0.86,NI,2025-01-08
293,vila franca do campo,37.7167,-25.4333,19.23,84,95,6.78,PT,2025-01-08
294,gubkinskiy,64.434,76.5026,-24.13,100,99,1.19,RU,2025-01-08
295,beebe,35.0706,-91.8796,-3.88,77,54,0.45,US,2025-01-08
296,gordonvale,-17.0936,145.7842,25.88,96,85,1.55,AU,2025-01-08
297,kuanda,56.3161,116.0806,-29.59,95,11,0.57,RU,2025-01-08
298,molepolole,-24.4066,25.4951,26.16,60,100,1.04,BW,2025-01-08
299,swift current,50.2834,-107.8014,0.45,74,0,10.8,CA,2025-01-08
300,alta,69.9689,23.2717,-22.41,84,88,1.03,NO,2025-01-08
301,sihanoukville,10.6093,103.5296,23.97,83,100,1.54,KH,2025-01-08
302,saint-pierre,-21.3393,55.4781,28.82,74,75,9.26,RE,2025-01-08
303,tafo,6.7345,-1.6127,36.88,19,48,3.1,GH,2025-01-08
304,jiamusi,46.8333,130.35,-22.89,90,100,4.01,CN,2025-01-08
305,sumbawa besar,-8.5,117.4333,24.36,97,51,1.6,ID,2025-01-08
306,imbituba,-28.24,-48.6703,21.76,80,100,3.56,BR,2025-01-08
307,kuala belait,4.5833,114.1833,26.44,83,100,0.38,BN,2025-01-08
308,peniche,39.3558,-9.3811,17.89,91,100,6.22,PT,2025-01-08
309,necochea,-38.5473,-58.7368,31.29,28,32,3.96,AR,2025-01-08
310,sandnessjoen,66.0217,12.6316,-4.77,54,0,2.06,NO,2025-01-08
311,montevideo,-34.8335,-56.1674,26.01,60,0,3.09,UY,2025-01-08
312,chokwe,-24.5333,32.9833,34.49,41,100,2.41,MZ,2025-01-08
313,fang,19.9169,99.2145,16.2,75,0,0.62,TH,2025-01-08
314,clarion,41.2148,-79.3853,-6.35,81,53,5.24,US,2025-01-08
315,sakaiminato,35.55,133.2333,1.99,93,75,10.29,JP,2025-01-08
316,vadso,70.0744,29.7487,-6.91,86,75,2.57,NO,2025-01-08
317,katsuura,35.1333,140.3,6.68,66,30,8.37,JP,2025-01-08
318,gongzhuling,43.5008,124.8198,-19.75,82,27,1.48,CN,2025-01-08
319,mikuni,36.2171,136.1519,6.64,56,100,11.21,JP,2025-01-08
320,shemordan,56.1856,50.3972,0.51,97,100,8.44,RU,2025-01-08
321,fortuna,40.5982,-124.1573,3.51,100,0,3.6,US,2025-01-08
322,fale old settlement,-9.3852,-171.2468,28.45,66,100,8.49,TK,2025-01-08
323,puerto deseado,-47.7503,-65.8938,24.08,33,70,12.26,AR,2025-01-08
324,contai,21.7786,87.7536,19.28,53,3,0.95,IN,2025-01-08
325,sisimiut,66.9395,-53.6735,-7.59,80,94,4.41,GL,2025-01-08
326,mooroopna,-36.4,145.35,21.02,32,100,3.28,AU,2025-01-08
327,baykal'sk,51.5058,104.1469,-7.78,66,7,1.66,RU,2025-01-08
328,thinadhoo,0.5333,72.9333,28.06,74,87,2.62,MV,2025-01-08
329,kanniyakumari,8.0833,77.5667,25.81,80,5,8.47,IN,2025-01-08
330,port lincoln,-34.7333,135.8667,19.47,76,100,3.55,AU,2025-01-08
331,banda aceh,5.5577,95.3222,26.62,78,100,0.42,ID,2025-01-08
332,sao felix do xingu,-6.6447,-51.995,31.17,55,78,1.33,BR,2025-01-08
333,mont-dore,-22.2833,166.5833,22.97,81,36,2.35,NC,2025-01-08
334,port elizabeth,-33.918,25.5701,24.16,69,20,8.75,ZA,2025-01-08
335,tadine,-21.55,167.8833,21.49,77,0,3.54,NC,2025-01-08
336,kununurra,-15.7667,128.7333,27.99,83,7,1.54,AU,2025-01-08
337,esmeraldas,-19.7625,-44.3139,24.65,78,60,2.59,BR,2025-01-08
338,inari,68.906,27.0288,-21.33,100,100,1.46,FI,2025-01-08
339,palikir - national government center,6.9248,158.1611,27.29,79,76,8.34,FM,2025-01-08
340,lospalos,-8.5186,127.0025,23.68,90,100,0.7,TL,2025-01-08
341,likiep,9.8251,169.3107,27.19,73,36,11.27,MH,2025-01-08
342,praia da vitoria,38.7333,-27.0667,20.14,68,40,11.03,PT,2025-01-08
343,alesund,62.4723,6.1549,-0.92,74,75,2.57,NO,2025-01-08
344,la passe,45.5549,-0.8967,13.22,80,100,12.13,FR,2025-01-08
345,loei,17.4167,101.5,17.32,59,83,1.54,TH,2025-01-08
346,cockburn town,21.4612,-71.1419,24.66,74,82,3.97,TC,2025-01-08
347,shakhun'ya,57.6758,46.6114,1.65,99,100,6.08,RU,2025-01-08
348,purwakarta,-6.5569,107.4433,24.7,92,95,0.9,ID,2025-01-08
349,nema,57.5067,50.5011,1.17,99,100,5.55,RU,2025-01-08
350,sibiti,-3.6819,13.3499,25.52,82,100,1.85,CG,2025-01-08
351,monrovia,6.3005,-10.7969,30.25,64,39,5.9,LR,2025-01-08
352,preobrazheniye,42.9019,133.9064,-15.43,58,1,4.62,RU,2025-01-08
353,gadzhiyevo,69.2551,33.3362,-15.33,96,67,2.91,RU,2025-01-08
354,kavaratti,10.5669,72.642,27.32,69,66,3.0,IN,2025-01-08
355,le mars,42.7942,-96.1656,-16.09,92,0,4.12,US,2025-01-08
356,podujeva,42.9106,21.1931,6.62,96,50,2.68,XK,2025-01-08
357,angaur state,6.906,134.13,28.28,77,98,4.04,PW,2025-01-08
358,tralee,52.2704,-9.7026,0.14,100,0,1.03,IE,2025-01-08
359,murghob,38.1702,73.9667,-24.98,89,5,3.27,TJ,2025-01-08
360,alegrete,-29.7831,-55.7919,31.8,22,1,5.12,BR,2025-01-08
361,wagar,16.1525,36.2032,29.27,25,46,3.68,SD,2025-01-08
362,fallon,39.4735,-118.7774,-8.07,93,75,3.09,US,2025-01-08
363,enewetak,11.3474,162.3373,27.37,83,11,9.02,MH,2025-01-08
364,bogale,16.2833,95.4,21.84,78,0,2.53,MM,2025-01-08
365,wakkanai,45.4094,141.6739,-2.84,84,100,16.66,JP,2025-01-08
366,virginia,37.5481,-77.4467,-1.98,68,40,5.66,US,2025-01-08
367,karratha,-20.7377,116.8463,30.22,60,93,7.52,AU,2025-01-08
368,crete,35.1558,24.895,10.58,78,100,2.01,GR,2025-01-08
369,palmer,42.1584,-72.3287,-4.16,44,20,11.83,US,2025-01-08
370,axim,4.8699,-2.2405,28.57,71,66,4.36,GH,2025-01-08
371,bekes,46.75,21.0,10.55,68,100,4.26,HU,2025-01-08
372,las vegas,36.175,-115.1372,8.38,26,0,7.2,US,2025-01-08
373,novoishimskiy,53.1981,66.7694,-9.57,93,100,8.13,KZ,2025-01-08
374,maloye ganyushkino,46.6,49.2667,-0.18,75,28,5.84,KZ,2025-01-08
375,inhambane,-23.865,35.3833,31.99,74,20,10.29,MZ,2025-01-08
376,kruisfontein,-34.0033,24.7314,22.58,54,0,7.06,ZA,2025-01-08
377,arteaga,18.4667,-102.4167,21.44,63,55,0.55,MX,2025-01-08
378,richards bay,-28.783,32.0377,23.31,87,100,6.36,ZA,2025-01-08
379,usinsk,65.9939,57.5281,-25.56,100,90,2.98,RU,2025-01-08
380,dzialoszyn,51.117,18.8652,2.03,91,100,4.6,PL,2025-01-08
381,nizhneangarsk,55.7833,109.55,-17.95,75,7,2.5,RU,2025-01-08
382,fada,7.25,4.0667,35.37,31,0,3.09,NG,2025-01-08
383,bayanhongor,46.7167,100.1167,-24.04,79,17,1.72,MN,2025-01-08
384,kayangel,8.0823,134.7173,28.45,76,29,5.06,PW,2025-01-08
385,matam,15.6175,-13.3303,35.0,8,6,6.48,SN,2025-01-08
386,mangrol,21.1167,70.1167,21.76,39,54,3.19,IN,2025-01-08
387,kayyerkan,69.3786,87.7439,-18.55,95,99,3.41,RU,2025-01-08
388,rudnyy,52.9594,63.1206,-5.48,94,100,9.02,KZ,2025-01-08
389,pangkalanbuun,-2.6833,111.6167,24.47,98,100,0.69,ID,2025-01-08
390,pirenopolis,-15.8525,-48.9592,21.32,97,100,0.4,BR,2025-01-08
391,trinidad,-14.8333,-64.9,25.99,94,75,4.63,BO,2025-01-08
392,gluckstadt,53.7833,9.4167,4.56,79,53,6.88,DE,2025-01-08
393,tura,25.5198,90.2201,13.81,57,0,1.46,IN,2025-01-08
394,kovdor,67.5662,30.4758,-16.6,96,100,2.7,RU,2025-01-08
395,tionk essil,12.7856,-16.5217,37.45,12,40,3.75,SN,2025-01-08
396,butembo,0.15,29.2833,23.38,45,100,0.66,CD,2025-01-08
397,laguna,38.421,-121.4238,9.08,71,0,0.0,US,2025-01-08
398,garhi khairo,28.0606,67.9803,17.22,10,100,0.45,PK,2025-01-08
399,villa emilio carranza,19.9667,-96.6,16.44,89,99,5.98,MX,2025-01-08
400,oostrozebeke,50.9209,3.338,3.41,93,100,0.89,BE,2025-01-08
401,alotau,-10.3069,150.4462,24.34,99,100,1.6,PG,2025-01-08
402,churapcha,62.0025,132.4325,-39.39,100,94,1.11,RU,2025-01-08
403,minas de marcona,-15.2119,-75.1103,20.2,65,100,4.9,PE,2025-01-08
404,atherton,53.5237,-2.4935,1.05,96,100,1.76,GB,2025-01-08
405,new plymouth,-39.0667,174.0833,13.23,100,11,4.45,NZ,2025-01-08
406,el kef,36.1742,8.7049,14.67,34,0,2.66,TN,2025-01-08
407,porto novo,6.4965,2.6036,31.9,57,58,5.62,BJ,2025-01-08
408,at taraf,25.3628,49.725,17.3,39,0,4.4,SA,2025-01-08
409,horta,38.5333,-28.6333,18.9,87,20,12.07,PT,2025-01-08
410,priob'ye,62.5206,65.5964,-21.06,97,98,1.96,RU,2025-01-08
411,ceerigaabo,10.6162,47.368,16.59,60,24,2.86,SO,2025-01-08
412,rongelap,11.1635,166.8941,27.49,77,33,11.0,MH,2025-01-08
413,radziejow,52.6248,18.5277,2.92,69,99,6.18,PL,2025-01-08
414,kouroussa,10.65,-9.8833,35.37,12,100,3.57,GN,2025-01-08
415,pierre,44.3683,-100.351,-12.62,92,20,1.54,US,2025-01-08
416,rakitovo,41.9833,24.0833,8.82,78,0,2.35,BG,2025-01-08
417,ebon,4.582,168.6964,27.02,83,19,8.5,MH,2025-01-08
418,moron,-34.6534,-58.6198,29.42,51,0,2.06,AR,2025-01-08
419,santana,-0.0583,-51.1817,30.1,79,75,3.09,BR,2025-01-08
420,ouesso,1.6136,16.0517,29.25,53,97,2.13,CG,2025-01-08
421,valentin gomez farias,28.2167,-106.5833,0.33,48,9,2.11,MX,2025-01-08
422,castillos,-34.1667,-53.8333,24.8,44,3,4.58,UY,2025-01-08
423,medicine hat,50.0501,-110.6683,3.24,69,75,11.32,CA,2025-01-08
424,prado,-17.3411,-39.2208,26.95,73,90,4.63,BR,2025-01-08
425,saldanha,-33.0117,17.9442,20.11,71,0,6.42,ZA,2025-01-08
426,bilmak,47.3624,36.6511,7.98,81,100,6.52,UA,2025-01-08
427,yaren,-0.5472,166.916,27.44,78,10,5.48,NR,2025-01-08
428,rosarito,32.3333,-117.0333,12.51,42,0,3.05,MX,2025-01-08
429,lubang,13.8584,120.124,26.46,78,100,10.96,PH,2025-01-08
430,okhotsk,59.3833,143.3,-19.08,77,94,4.35,RU,2025-01-08
431,grambling,32.5276,-92.714,-0.56,55,6,2.91,US,2025-01-08
432,zapolyarnyy,69.4154,30.8136,-22.67,99,85,1.87,RU,2025-01-08
433,aberystwyth,52.4155,-4.0829,2.98,80,100,1.78,GB,2025-01-08
434,wanning,18.8003,110.3967,20.55,81,100,3.64,CN,2025-01-08
435,monterey,36.2505,-121.2516,5.55,47,63,0.89,US,2025-01-08
436,holualoa,19.6228,-155.9522,18.24,76,2,0.89,US,2025-01-08
437,conception bay south,47.4999,-52.9981,1.58,97,100,2.99,CA,2025-01-08
438,sorbhog,26.5,90.8667,16.48,58,1,0.44,IN,2025-01-08
439,funadhoo,6.15,73.2667,27.54,76,25,6.43,MV,2025-01-08
440,freetown,8.484,-13.2299,29.84,74,20,4.12,SL,2025-01-08
441,rudbar,30.15,62.6,9.95,42,87,2.48,AF,2025-01-08
442,brokopondo,4.75,-55.1667,28.23,63,75,2.58,SR,2025-01-08
443,ariquemes,-9.9133,-63.0408,25.16,85,100,1.96,BR,2025-01-08
444,yuzhno-kurilsk,44.0306,145.8556,-1.88,56,95,11.18,RU,2025-01-08
445,sao tome,0.3365,6.7273,27.84,73,84,1.49,ST,2025-01-08
446,marka,1.7159,44.7717,25.18,84,94,7.12,SO,2025-01-08
447,kashmar,35.2383,58.4656,4.89,59,34,3.87,IR,2025-01-08
448,port moresby,-9.4431,147.1797,25.63,87,60,1.61,PG,2025-01-08
449,vila velha,-20.3297,-40.2925,27.97,83,75,3.09,BR,2025-01-08
450,dordrecht,51.81,4.6736,4.43,89,95,0.45,NL,2025-01-08
451,hadibu,12.65,54.0333,23.82,64,44,5.04,YE,2025-01-08
452,menongue,-14.6585,17.691,24.22,63,100,2.11,AO,2025-01-08
453,tual,-5.6667,132.75,28.88,72,37,1.99,ID,2025-01-08
454,fuling,29.7022,107.3919,7.79,87,100,0.32,CN,2025-01-08
455,zhaqsy,51.9083,67.3133,-12.34,91,100,7.75,KZ,2025-01-08
456,itoman,26.1247,127.6694,14.01,67,75,2.06,JP,2025-01-08
457,daru,-9.0763,143.2092,27.59,80,96,1.88,PG,2025-01-08
458,mar del plata,-38.0023,-57.5575,25.01,82,0,5.66,AR,2025-01-08
459,semnan,35.5729,53.3971,7.6,55,99,1.41,IR,2025-01-08
460,lensk,60.7253,114.9278,-27.06,98,27,1.12,RU,2025-01-08
461,sitia,35.2,26.0986,15.89,71,97,3.04,GR,2025-01-08
462,namdrik,5.5994,168.1028,27.46,81,65,9.31,MH,2025-01-08
463,seydi,39.4816,62.9137,0.55,55,0,7.17,TM,2025-01-08
464,portland,45.5234,-122.6762,6.45,83,100,1.34,US,2025-01-08
465,midvagur,62.0511,-7.1939,2.46,69,75,11.83,FO,2025-01-08
466,brookings,44.3114,-96.7984,-14.97,89,100,2.57,US,2025-01-08
467,auki,-8.7676,160.7034,26.09,87,98,2.71,SB,2025-01-08
468,ketchikan,55.3422,-131.6461,5.19,99,100,2.57,US,2025-01-08
469,kalmunai,7.4167,81.8167,25.2,85,14,5.02,LK,2025-01-08
470,mkushi,-13.6202,29.3939,22.6,87,91,1.31,ZM,2025-01-08
471,raton,36.9034,-104.4391,-7.66,86,100,0.0,US,2025-01-08
472,novodvinsk,64.4165,40.8122,-9.14,94,100,5.83,RU,2025-01-08
473,tosontsengel,48.7567,98.2839,-24.39,94,8,0.52,MN,2025-01-08
474,dentsville,34.064,-80.9582,2.52,59,0,0.0,US,2025-01-08
475,jayapura,-2.5333,140.7,22.75,88,27,1.25,ID,2025-01-08
476,bentiu,9.2333,29.8333,33.97,11,0,2.44,SS,2025-01-08
477,cadiz,36.5,-5.75,16.23,71,16,4.16,ES,2025-01-08
478,lyubotyn,49.95,35.9667,6.89,96,100,4.6,UA,2025-01-08
479,ancud,-41.8697,-73.8203,14.24,95,100,5.41,CL,2025-01-08
480,sovetskaya gavan',48.9723,140.2878,-6.17,89,100,8.76,RU,2025-01-08
481,amga,60.8953,131.9608,-37.53,100,100,0.98,RU,2025-01-08
482,berdigestyakh,62.0989,126.6992,-32.35,100,72,1.87,RU,2025-01-08
483,galveston,29.3669,-94.9669,3.98,68,100,6.17,US,2025-01-08
484,houghton,47.1219,-88.569,-10.2,88,100,1.54,US,2025-01-08
485,kailua-kona,19.6406,-155.9956,20.31,79,0,0.89,US,2025-01-08
486,mossel bay,-34.1831,22.146,22.0,64,3,4.79,ZA,2025-01-08
487,mooirivier,-29.2082,29.9946,15.17,92,99,3.2,ZA,2025-01-08
488,timmins,48.4669,-81.3331,-27.1,76,75,5.14,CA,2025-01-08
489,zaysan,47.4667,84.8667,-5.04,84,100,2.18,KZ,2025-01-08
490,coronel dorrego,-38.7187,-61.2873,34.5,20,100,6.86,AR,2025-01-08
491,zahedan,29.4963,60.8629,4.51,50,73,1.95,IR,2025-01-08
492,tara,56.8944,74.371,-17.29,96,87,3.61,RU,2025-01-08
493,piti village,13.4626,144.6933,28.03,82,20,3.6,GU,2025-01-08
494,homer,59.6425,-151.5483,2.09,86,0,1.54,US,2025-01-08
495,akot,21.0964,77.0586,18.86,34,9,2.66,IN,2025-01-08
496,turkmenbasy,40.0222,52.9552,6.83,53,0,3.72,TM,2025-01-08
497,groningen,53.25,6.75,5.01,79,100,4.12,NL,2025-01-08
498,laurentides,46.4334,-74.9826,-15.08,85,100,5.96,CA,2025-01-08
499,multan,30.1956,71.4753,15.94,59,14,0.0,PK,2025-01-08
500,zubova polyana,54.0771,42.8372,2.2,97,100,6.3,RU,2025-01-08
501,san luis,-33.295,-66.3356,32.63,27,8,4.69,AR,2025-01-08
502,arys,42.4252,68.795,-2.25,76,18,3.87,KZ,2025-01-08
503,arraial do cabo,-22.9661,-42.0278,28.92,74,40,4.12,BR,2025-01-08
504,zhengjiatun,43.5064,123.5064,-18.01,87,45,2.05,CN,2025-01-08
505,tarawa,1.419,172.984,27.05,83,40,2.06,KI,2025-01-08
506,pangkalan brandan,4.0238,98.2782,24.62,90,98,1.47,ID,2025-01-08
507,paka,4.6374,103.4368,25.72,79,99,2.98,MY,2025-01-08
508,luanda,-8.8368,13.2343,30.0,58,20,5.66,AO,2025-01-08
509,vorotynets,56.0603,45.8633,1.89,99,100,7.12,RU,2025-01-08
510,taoudenni,22.6783,-3.9836,24.76,13,3,7.63,ML,2025-01-08
511,viedma,-40.8135,-62.9967,37.25,22,0,7.75,AR,2025-01-08
512,kasongo,-4.45,26.6667,22.56,84,100,0.29,CD,2025-01-08
513,prince albert,53.2001,-105.7677,-5.6,90,100,2.38,CA,2025-01-08
514,tocopilla,-22.092,-70.1979,21.68,77,0,3.0,CL,2025-01-08
515,howard springs,-12.497,131.047,26.95,96,100,2.07,AU,2025-01-08
516,kita,13.0349,-9.4895,35.4,11,99,3.24,ML,2025-01-08
517,baruun-urt,46.6806,113.2792,-19.18,78,0,2.22,MN,2025-01-08
518,mogadishu,2.0371,45.3438,25.19,84,93,7.04,SO,2025-01-08
519,issoire,45.55,3.25,14.59,69,100,4.63,FR,2025-01-08
520,luau,-10.7073,22.2247,25.52,60,54,3.14,AO,2025-01-08
521,bucerias,20.75,-105.3333,22.77,60,100,5.14,MX,2025-01-08
522,vilyuysk,63.7553,121.6247,-27.63,98,82,1.54,RU,2025-01-08
523,narsimhapur,22.95,79.2,14.26,31,0,0.71,IN,2025-01-08
524,broome,42.2506,-75.833,-7.48,76,100,6.69,US,2025-01-08
525,bouarfa,32.53,-1.95,13.04,29,94,6.1,MA,2025-01-08
526,sao gabriel da cachoeira,-0.1303,-67.0892,31.49,56,100,0.43,BR,2025-01-08
527,nieuw amsterdam,5.8833,-55.0833,30.01,66,75,5.14,SR,2025-01-08
528,coquimbo,-29.9533,-71.3436,22.77,60,75,5.14,CL,2025-01-08
529,nefta,33.8731,7.8777,16.52,35,2,4.52,TN,2025-01-08
530,lucapa,-8.4192,20.7447,25.32,73,66,1.84,AO,2025-01-08
531,nyurba,63.2842,118.3319,-25.59,96,61,2.51,RU,2025-01-08
532,san pedro del parana,-26.8333,-56.2,33.47,22,0,3.28,PY,2025-01-08
533,tianchang,37.9981,114.0156,-4.27,31,0,1.42,CN,2025-01-08
534,ola,59.5833,151.2833,-16.77,72,15,5.06,RU,2025-01-08
535,happy valley-goose bay,53.3168,-60.3315,2.17,93,100,4.12,CA,2025-01-08
536,villa gesell,-37.2639,-56.973,23.33,57,4,7.07,AR,2025-01-08
537,zalingei,12.9096,23.4741,29.57,9,11,3.18,SD,2025-01-08
538,beihai,21.4833,109.1,18.5,57,87,3.77,CN,2025-01-08
539,lae,-6.7221,146.9847,23.38,90,97,1.69,PG,2025-01-08
540,hasaki,35.7333,140.8333,7.93,30,38,8.62,JP,2025-01-08
541,sao vicente,-23.9631,-46.3919,27.77,26,45,2.24,BR,2025-01-08
542,chengdu,30.6667,104.0667,7.61,69,100,0.56,CN,2025-01-08
543,tarija,-21.5355,-64.7296,23.95,60,40,2.57,BO,2025-01-08
544,saraykent,39.6936,35.5111,5.69,56,71,0.99,TR,2025-01-08
545,lorengau,-2.0226,147.2712,27.3,82,100,7.27,PG,2025-01-08
546,kisangani,0.5167,25.2,31.32,45,100,0.93,CD,2025-01-08
547,lebanon,36.2081,-86.2911,-2.51,79,100,0.89,US,2025-01-08
548,santa ana de yacuma,-13.75,-65.4333,25.97,89,100,3.09,BO,2025-01-08
549,plastun,44.7561,136.2939,-17.41,60,94,6.45,RU,2025-01-08
550,karur,10.95,78.0833,23.63,53,41,4.53,IN,2025-01-08
551,conduaga,8.862,117.4893,25.52,89,100,1.05,PH,2025-01-08
552,wewak,-3.5534,143.6268,26.79,84,61,3.59,PG,2025-01-08
553,buala,-8.145,159.5921,27.08,84,84,3.87,SB,2025-01-08
554,taulaga,-11.0553,-171.0883,28.51,71,100,9.21,AS,2025-01-08
555,kavarna,43.4333,28.3333,12.54,72,98,4.53,BG,2025-01-08
556,shimoda,34.6667,138.95,5.5,59,3,12.07,JP,2025-01-08
557,miquelon,47.0975,-56.3814,1.9,88,100,5.8,PM,2025-01-08
558,lyakhavichy,53.0388,26.2656,1.33,87,100,3.97,BY,2025-01-08
559,mezhdurechensk,53.6942,88.0603,-3.55,97,100,1.47,RU,2025-01-08
560,rosetta,31.4044,30.4164,17.29,65,86,7.16,EG,2025-01-08
561,urengoy,65.9667,78.3667,-26.13,100,90,0.89,RU,2025-01-08
562,fiche,9.8,38.7333,17.58,30,28,1.28,ET,2025-01-08
563,ploneour-lanvern,47.9,-4.2833,13.18,88,100,9.77,FR,2025-01-08
564,dukku,10.8231,10.7717,31.0,13,39,5.3,NG,2025-01-08
565,arno,60.1167,18.6333,1.19,95,100,5.49,SE,2025-01-08
566,saint john,45.2727,-66.0677,-5.43,68,75,3.09,CA,2025-01-08
